[{"id":1,"type":"COCKTAILS","time":"2017-06-23T20:00:00.000Z","title":"James Bond Summer Ball","location":{"phone":"99663365","name":"HAMILTON Maurice","latitude":51.517608,"longitude":-0.127625},"creator":{"phone":"99663365","name":"HAMILTON Maurice","avatarUrl":"https://png.pngtree.com/png-clipart/20190520/original/pngtree-business-male-icon-vector-png-image_4187852.jpg"},"guests":[{"phone":"99663365","name":"HAMILTON Maurice","avatarUrl":"https://png.pngtree.com/png-clipart/20190520/original/pngtree-business-male-icon-vector-png-image_4187852.jpg"},{"phone":"99663365","name":"Roger Planes","avatarUrl":"https://png.pngtree.com/png-clipart/20190520/original/pngtree-business-male-icon-vector-png-image_4187852.jpg"}],"comments":[{"user":{"phone":"99663365","name":"HAMILTON Maurice","avatarUrl":"https://png.pngtree.com/png-clipart/20190520/original/pngtree-business-male-icon-vector-png-image_4187852.jpg"},"timestamp":"2017-06-20T15:21:21.000Z","message":"Looking forward to this!"},{"user":{"phone":"99663365","name":"Roger Planes","avatarUrl":"https://png.pngtree.com/png-clipart/20190520/original/pngtree-business-male-icon-vector-png-image_4187852.jpg"},"timestamp":"2017-06-23T18:53:45.000Z","message":"Not long to go now :)"},{"user":{"phone":"99663365","name":"HAMILTON Maurice","avatarUrl":"https://png.pngtree.com/png-clipart/20190520/original/pngtree-business-male-icon-vector-png-image_4187852.jpg"},"timestamp":"2017-06-24T13:31:01.000Z","message":"Thanks for coming everyone"}]},{"id":2,"type":"COCKTAILS","time":"2017-12-23T20:00:00.000Z","title":"James Bond Winter Ball","location":{"phone":"99663365","name":"HAMILTON Maurice","latitude":51.517608,"longitude":-0.127625},"creator":{"phone":"99663365","name":"Mark Hartley","avatarUrl":"https://png.pngtree.com/png-clipart/20190520/original/pngtree-business-male-icon-vector-png-image_4187852.jpg"},"guests":[{"phone":"99663365","name":"HAMILTON Maurice","avatarUrl":"https://png.pngtree.com/png-clipart/20190520/original/pngtree-business-male-icon-vector-png-image_4187852.jpg"}],"comments":[{"user":{"phone":"99663365","name":"HAMILTON Maurice","avatarUrl":"https://png.pngtree.com/png-clipart/20190520/original/pngtree-business-male-icon-vector-png-image_4187852.jpg"},"timestamp":"2017-06-24T14:32:27.000Z","message":"Can you send details about the dress code?"}]},{"id":3,"type":"BEERS","time":"2017-06-23T18:00:00.000Z","title":"Silicon Drinkabout","location":{"phone":"99663365","name":"Duke of York","latitude":51.499211,"longitude":-0.09947},"creator":{"phone":"99663365","name":"Mark Hartley","avatarUrl":"https://png.pngtree.com/png-clipart/20190520/original/pngtree-business-male-icon-vector-png-image_4187852.jpg"},"guests":[{"phone":"99663365","name":"HAMILTON Maurice","avatarUrl":"https://png.pngtree.com/png-clipart/20190520/original/pngtree-business-male-icon-vector-png-image_4187852.jpg"},{"phone":"99663365","name":"Mark Hartley","avatarUrl":"https://png.pngtree.com/png-clipart/20190520/original/pngtree-business-male-icon-vector-png-image_4187852.jpg"},{"phone":"99663365","name":"Fie Jelved","avatarUrl":"https://png.pngtree.com/png-clipart/20190520/original/pngtree-business-male-icon-vector-png-image_4187852.jpg"}],"comments":[{"user":{"phone":"99663365","name":"Roger Planes","avatarUrl":"https://png.pngtree.com/png-clipart/20190520/original/pngtree-business-male-icon-vector-png-image_4187852.jpg"},"timestamp":"2017-06-20T17:31:17.000Z","message":"Sorry, I can't make this one"}]},{"id":4,"type":"BEERS","time":"2017-07-28T18:00:00.000Z","title":"Silicon Drinkabout","location":{"phone":"99663365","name":"Old Thameside Inn","latitude":51.507013,"longitude":-0.09061},"creator":{"phone":"99663365","name":"Mark Hartley","avatarUrl":"https://png.pngtree.com/png-clipart/20190520/original/pngtree-business-male-icon-vector-png-image_4187852.jpg"},"guests":[{"phone":"99663365","name":"HAMILTON Maurice","avatarUrl":"https://png.pngtree.com/png-clipart/20190520/original/pngtree-business-male-icon-vector-png-image_4187852.jpg"},{"phone":"99663365","name":"Roger Planes","avatarUrl":"https://png.pngtree.com/png-clipart/20190520/original/pngtree-business-male-icon-vector-png-image_4187852.jpg"},{"phone":"99663365","name":"Mark Hartley","avatarUrl":"https://png.pngtree.com/png-clipart/20190520/original/pngtree-business-male-icon-vector-png-image_4187852.jpg"},{"phone":"99663365","name":"Fie Jelved","avatarUrl":"https://png.pngtree.com/png-clipart/20190520/original/pngtree-business-male-icon-vector-png-image_4187852.jpg"}],"comments":[{"user":{"phone":"99663365","name":"Mark Hartley","avatarUrl":"https://png.pngtree.com/png-clipart/20190520/original/pngtree-business-male-icon-vector-png-image_4187852.jpg"},"timestamp":"2017-06-18T18:34:12.000Z","message":"I'll be there"},{"user":{"phone":"99663365","name":"Fie Jelved","avatarUrl":"https://png.pngtree.com/png-clipart/20190520/original/pngtree-business-male-icon-vector-png-image_4187852.jpg"},"timestamp":"2017-06-18T18:40:52.000Z","message":"Me too"}]},{"id":5,"type":"BEERS","time":"2017-02-24T17:00:00.000Z","title":"Silicon Rhino Office Warming","location":{"phone":"99663365","name":"Silicon Rhino London","latitude":51.498511,"longitude":-0.104288},"creator":{"phone":"99663365","name":"Roger Planes","avatarUrl":"https://png.pngtree.com/png-clipart/20190520/original/pngtree-business-male-icon-vector-png-image_4187852.jpg"},"guests":[{"phone":"99663365","name":"HAMILTON Maurice","avatarUrl":"https://png.pngtree.com/png-clipart/20190520/original/pngtree-business-male-icon-vector-png-image_4187852.jpg"},{"phone":"99663365","name":"Roger Planes","avatarUrl":"https://png.pngtree.com/png-clipart/20190520/original/pngtree-business-male-icon-vector-png-image_4187852.jpg"},{"phone":"99663365","name":"Mark Hartley","avatarUrl":"https://png.pngtree.com/png-clipart/20190520/original/pngtree-business-male-icon-vector-png-image_4187852.jpg"},{"phone":"99663365","name":"Fie Jelved","avatarUrl":"https://png.pngtree.com/png-clipart/20190520/original/pngtree-business-male-icon-vector-png-image_4187852.jpg"}],"comments":[{"user":{"phone":"99663365","name":"HAMILTON Maurice","avatarUrl":"https://png.pngtree.com/png-clipart/20190520/original/pngtree-business-male-icon-vector-png-image_4187852.jpg"},"timestamp":"2017-01-18T13:57:28.000Z","message":"What time will everyone arrive?"},{"user":{"phone":"99663365","name":"Roger Planes","avatarUrl":"https://png.pngtree.com/png-clipart/20190520/original/pngtree-business-male-icon-vector-png-image_4187852.jpg"},"timestamp":"2017-01-18T13:58:58.000Z","message":"I might be a little late"},{"user":{"phone":"99663365","name":"Mark Hartley","avatarUrl":"https://png.pngtree.com/png-clipart/20190520/original/pngtree-business-male-icon-vector-png-image_4187852.jpg"},"timestamp":"2017-01-18T14:02:12.000Z","message":"I should be there on time"},{"user":{"phone":"99663365","name":"Fie Jelved","avatarUrl":"https://png.pngtree.com/png-clipart/20190520/original/pngtree-business-male-icon-vector-png-image_4187852.jpg"},"timestamp":"2017-01-18T16:06:49.000Z","message":"I'll be there early"}]},{"id":6,"type":"COFFEES","time":"2017-08-21T13:00:00.000Z","title":"Javascript Meetup","location":{"phone":"99663365","name":"Pret A Manger, Elephant & Castle","latitude":51.49354,"longitude":-0.101082},"creator":{"phone":"99663365","name":"HAMILTON Maurice","avatarUrl":"https://png.pngtree.com/png-clipart/20190520/original/pngtree-business-male-icon-vector-png-image_4187852.jpg"},"guests":[{"phone":"99663365","name":"Fie Jelved","avatarUrl":"https://png.pngtree.com/png-clipart/20190520/original/pngtree-business-male-icon-vector-png-image_4187852.jpg"}],"comments":[]},{"id":7,"type":"MILKSHAKES","time":"2017-08-19T16:30:00.000Z","title":"Outdoor Cinema","location":{"phone":"99663365","name":"Chiswick House & Gardens","latitude":51.482478,"longitude":-0.25924},"creator":{"phone":"99663365","name":"Mark Hartley","avatarUrl":"https://png.pngtree.com/png-clipart/20190520/original/pngtree-business-male-icon-vector-png-image_4187852.jpg"},"guests":[{"phone":"99663365","name":"Mark Hartley","avatarUrl":"https://png.pngtree.com/png-clipart/20190520/original/pngtree-business-male-icon-vector-png-image_4187852.jpg"}],"comments":[]}]